City,Lat,Lng,Max Temp,Humidity,Cloudiness, Wind Speed,Country,Date
Ciprian Porumbescu,47.5667,26.0667,2.92,69,100,2.6,RO,1645320523
Barrow,71.2906,-156.7887,-31.99,68,0,5.14,US,1645320523
Albany,42.6001,-73.9662,-5.86,65,81,2.24,US,1645320245
Constitución,-35.3333,-72.4167,15.25,87,0,6.41,CL,1645320356
Rikitea,-23.1203,-134.9692,26.14,66,0,5.21,PF,1645320407
Puerto Ayacucho,5.6639,-67.6236,31.07,35,62,4.89,VE,1645320524
Carnarvon,-24.8667,113.6333,37.04,19,5,3.09,AU,1645320306
Saskylakh,71.9167,114.0833,-31.35,100,90,3.35,RU,1645320525
Svolvær,68.2342,14.5683,-3.59,69,100,4.56,NO,1645320525
Mataura,-46.1927,168.8643,18.04,37,57,0.99,NZ,1645320526
Upernavik,72.7868,-56.1549,-21.52,74,100,2.2,GL,1645320276
Busselton,-33.65,115.3333,22.8,52,98,6.02,AU,1645320526
Cabadiangan,9.7531,122.4739,29.01,63,73,4.19,PH,1645320527
Arraial do Cabo,-22.9661,-42.0278,22.94,92,100,4.24,BR,1645320527
Hong Kong,22.2855,114.1577,9.97,91,100,7.6,HK,1645320257
Qaanaaq,77.484,-69.3632,-19.1,49,19,4.07,GL,1645320528
Nikolskoye,59.7035,30.7861,-2,88,100,5.43,RU,1645320528
Bako,5.7833,36.5667,21.81,53,90,1.41,ET,1645320529
Butaritari,3.0707,172.7902,26.92,83,100,9.37,KI,1645320529
Akropong,5.9746,-0.0854,24.53,78,95,3.19,GH,1645320530
Kahului,20.8947,-156.47,28.59,78,40,5.66,US,1645320523
Bredasdorp,-34.5322,20.0403,18.62,88,2,4.12,ZA,1645320334
Tasiilaq,65.6145,-37.6368,-4.91,65,100,9.1,GL,1645320531
Bethel,41.3712,-73.414,-2.95,50,0,7.72,US,1645320531
East London,-33.0153,27.9116,22.17,77,19,8.19,ZA,1645320532
Kiryat Gat,31.61,34.7642,12.44,100,38,2.25,IL,1645320532
Forsytheganj,52.6333,29.7333,1.5,82,83,8.47,BY,1645320533
Meadow Lake,34.8014,-106.5436,11.71,27,0,0.74,US,1645320533
Sibolga,1.7427,98.7792,25.86,71,29,1.07,ID,1645320533
Srandakan,-7.9386,110.2506,26.74,82,100,2.38,ID,1645320534
Codrington,-38.2667,141.9667,18.76,56,100,5.6,AU,1645320535
Solnechnyy,50.7214,136.6319,-14.05,84,95,3.58,RU,1645320535
Vaini,-21.2,-175.2,30.09,74,20,4.12,TO,1645320536
Cape Town,-33.9258,18.4232,19.38,83,20,3.6,ZA,1645320536
Barra de Tecoanapa,16.5167,-98.75,26.96,67,0,3.07,MX,1645320536
Hermanus,-34.4187,19.2345,17.72,92,18,2.96,ZA,1645320537
Isangel,-19.55,169.2667,30.06,74,75,3.09,VU,1645320537
Teya,60.3778,92.6267,-11.51,95,97,2.48,RU,1645320538
Palana,59.1167,159.9667,-15.08,85,32,3.42,RU,1645320538
Meulaboh,4.1363,96.1285,25.5,82,22,1.51,ID,1645320538
Souillac,-20.5167,57.5167,27.42,94,75,9.77,MU,1645320539
Punta Arenas,-53.15,-70.9167,8.06,81,75,4.12,CL,1645320321
Nanortalik,60.1432,-45.2371,-8.31,66,100,18.19,GL,1645320539
Ushuaia,-54.8,-68.3,5.81,65,75,2.57,AR,1645320363
Atuona,-9.8,-139.0333,25.84,70,1,7.38,PF,1645320540
New Norfolk,-42.7826,147.0587,22.03,36,100,2.68,AU,1645320541
Price,39.5994,-110.8107,7.59,31,0,3.09,US,1645320541
Port Lincoln,-34.7333,135.8667,19,63,100,4.56,AU,1645320542
Colares,38.7992,-9.4469,11.29,70,0,14.31,PT,1645320542
Kumul,42.8,93.45,-5.48,33,0,2.02,CN,1645320542
Baní,18.2833,-70.3333,25.48,73,16,5.66,DO,1645320543
Kurchum,48.5722,83.6542,-24.62,93,7,0.73,KZ,1645320543
Nacala,-14.5428,40.6728,24.5,94,100,1.95,MZ,1645320544
Assiut,27.181,31.1837,10.1,63,0,3.62,EG,1645320544
Avarua,-21.2078,-159.775,29.03,70,18,5.14,CK,1645320535
Tuktoyaktuk,69.4541,-133.0374,-33,75,40,3.09,CA,1645320605
Khatanga,71.9667,102.5,-25.65,92,99,3.08,RU,1645320606
Kaitangata,-46.2817,169.8464,15.93,52,49,3.32,NZ,1645320606
Lufilufi,-13.8745,-171.5986,32.88,80,78,5.63,WS,1645320607
Tadine,-21.55,167.8833,26.62,80,100,2,NC,1645320608
Vehari,30.0333,72.35,11.74,43,0,2.44,PK,1645320609
Sumbe,-11.2061,13.8437,25.45,82,100,1.76,AO,1645320609
Qasigiannguit,68.8193,-51.1922,-12.86,91,100,3.55,GL,1645320610
Rawson,-43.3002,-65.1023,17.04,87,90,10.61,AR,1645320610
Hobart,-42.8794,147.3294,22.23,40,75,4.63,AU,1645320473
Poum,-20.2333,164.0167,27.2,77,100,4.55,NC,1645320611
George Town,5.4112,100.3354,28.96,86,20,1.54,MY,1645320381
Dicabisagan,17.0818,122.4157,25.2,88,92,2.98,PH,1645320612
Dikson,73.5069,80.5464,-5.26,95,100,8.77,RU,1645320612
Severo-Kuril'sk,50.6789,156.125,-1.15,73,64,0.15,RU,1645320613
Kentau,43.5206,68.5094,1.48,49,42,3.35,KZ,1645320613
Rome,43.2128,-75.4557,-7.08,65,100,9.83,US,1645320489
Tiarei,-17.5333,-149.3333,29.01,73,66,6.56,PF,1645320614
Lüderitz,-26.6481,15.1594,19.26,76,0,6.04,NA,1645320614
Litovko,49.2361,135.1742,-12.13,82,99,1.64,RU,1645320615
‘Āhuimanu,21.4447,-157.8378,27.84,74,75,4.63,US,1645320615
Yellowknife,62.456,-114.3525,-28.58,69,20,3.6,CA,1645320380
Wasilla,61.5814,-149.4394,2.99,73,40,2.57,US,1645320589
San Cristobal,7.7669,-72.225,21.1,91,82,1.16,VE,1645320616
Måløy,61.9353,5.1136,3.18,87,88,2.24,NO,1645320616
San Quintín,30.4833,-115.95,15.07,67,54,3.45,MX,1645320617
Shingū,33.7333,135.9833,7.73,55,22,6.63,JP,1645320617
Terra Santa,-2.1042,-56.4869,23.01,94,97,0.63,BR,1645320617
Champerico,14.3,-91.9167,27.38,69,3,2.33,GT,1645320618
Ribeira Grande,38.5167,-28.7,12.86,58,19,2.18,PT,1645320618
Henties Bay,-22.116,14.2845,18.81,89,78,1.58,NA,1645320619
Charters Towers,-20.1,146.2667,31.02,43,23,4.64,AU,1645320619
Shizunai-furukawachō,42.3339,142.3669,0.4,96,100,5.53,JP,1645320619
Guerrero Negro,27.9769,-114.0611,17.22,47,0,5.21,MX,1645320620
Thompson,55.7435,-97.8558,-24.91,70,20,3.6,CA,1645320620
Lyndon,38.2567,-85.6016,0.31,45,0,2.57,US,1645320621
San Patricio,28.017,-97.5169,14.05,60,12,3.72,US,1645320621
Vanimo,-2.6741,141.3028,24.62,93,100,1.4,PG,1645320622
Baykit,61.67,96.37,-13.22,99,99,1.17,RU,1645320622
Shashi,30.3072,112.2447,3.89,49,100,2.22,CN,1645320623
Shymkent,42.3,69.6,4.33,56,0,3,KZ,1645320623
Kieta,-6.2167,155.6333,29.83,70,88,3.13,PG,1645320624
Brebu,45.4203,21.9925,6.54,79,100,0.8,RO,1645320624
Nemuro,43.3236,145.575,0.24,99,100,13.79,JP,1645320625
Alofi,-19.0595,-169.9187,25.94,89,6,2.57,NU,1645320625
Fortuna,40.5982,-124.1573,18.99,90,75,4.12,US,1645320526
Nome,64.5011,-165.4064,-15.96,78,40,3.6,US,1645320626
Kommunisticheskiy,61.6789,64.4819,-4.86,93,94,4.65,RU,1645320626
Umluj,25.0213,37.2685,17.61,60,12,3.54,SA,1645320627
Shancheng,34.7953,116.0817,2.88,18,6,3.29,CN,1645320627
Nehe,48.4833,124.8333,-15.53,91,100,2.28,CN,1645320628
Anadyr,64.75,177.4833,-24.72,70,0,1,RU,1645320628
Nantucket,41.2835,-70.0995,0.05,70,100,16.18,US,1645320629
Ilulissat,69.2167,-51.1,-12.99,78,75,5.66,GL,1645320689
Stege,54.987,12.2846,2.27,93,100,9.59,DK,1645320689
Ambunti,-4.2365,142.8448,29.54,72,99,1.07,PG,1645320690
Saint-Philippe,-21.3585,55.7679,26.77,94,100,12.36,RE,1645320690
Mount Gambier,-37.8333,140.7667,17.95,59,100,5.14,AU,1645320400
Hithadhoo,-0.6,73.0833,27.4,71,99,2.37,MV,1645320691
Leningradskiy,69.3833,178.4167,-32.13,99,96,0.99,RU,1645320691
Longyearbyen,78.2186,15.6401,-17.09,85,75,6.17,SJ,1645320692
Benemérito de las Américas,16.5167,-90.6439,21.79,85,42,1.11,MX,1645320692
Lorengau,-2.0226,147.2712,29.16,78,100,4.14,PG,1645320693
Novaya Ladoga,60.1025,32.3019,-2.22,87,100,7.11,RU,1645320693
Maragogi,-9.0122,-35.2225,26.45,79,10,4.65,BR,1645320693
São Félix do Xingu,-6.6447,-51.995,21.5,99,100,0.39,BR,1645320694
Hualmay,-11.0964,-77.6139,22.18,82,100,3.74,PE,1645320694
Lokoja,7.8024,6.743,26.81,67,100,1.81,NG,1645320695
Arman',59.7,150.1667,-16.66,73,91,4.38,RU,1645320695
Sørland,67.667,12.6934,-1.17,64,88,5.7,NO,1645320696
Maralal,1.0968,36.698,16.99,58,89,1.5,KE,1645320696
Lima,-12.0432,-77.0282,21.88,76,0,4.63,PE,1645320517
Salalah,17.0151,54.0924,22.05,68,20,1.03,OM,1645320697
Villa María,-32.4075,-63.2402,17.68,94,66,4.33,AR,1645320697
Jamestown,42.097,-79.2353,-8.05,63,100,4.12,US,1645320698
Norman Wells,65.282,-126.8329,-22.98,64,40,6.17,CA,1645320698
Agirish,61.9247,63.0231,-5.68,94,87,4.42,RU,1645320698
Bluff,-46.6,168.3333,18.22,63,76,4.02,NZ,1645320699
Nizwá,22.9333,57.5333,17.1,50,5,0.14,OM,1645320699
Fort-Shevchenko,44.5086,50.263,4.63,68,0,1.75,KZ,1645320700
Tateyama,34.9833,139.8667,10.15,84,98,3.08,JP,1645320700
Loandjili,-4.7561,11.8578,24.06,88,20,1.54,CG,1645320701
Faanui,-16.4833,-151.75,27.55,73,100,7.31,PF,1645320701
Chokurdakh,70.6333,147.9167,-34.99,100,100,1.36,RU,1645320702
Hamilton,39.1834,-84.5333,-2.53,57,0,2.06,US,1645320465
Labuhan,-6.8844,112.2051,27.67,78,100,4.06,ID,1645320702
Mar del Plata,-38.0023,-57.5575,21.72,91,100,8.05,AR,1645320453
Los Llanos de Aridane,28.6585,-17.9182,13.96,77,75,7.72,ES,1645320707
Airai,-8.9266,125.4092,22.97,62,71,0.83,TL,1645320708
Boromo,11.75,-2.9333,25.75,16,0,1.85,BF,1645320708
Evensk,61.95,159.2333,-17.56,76,2,5.66,RU,1645320708
Tilichiki,60.4667,166.1,-25.14,83,6,5.41,RU,1645320709
Jaguaribe,-5.8906,-38.6219,24.37,84,53,2.78,BR,1645320709
Tolbazy,54.0241,55.8825,-7.58,93,100,6.83,RU,1645320710
Hasaki,35.7333,140.8333,7.22,82,100,8.16,JP,1645320710
Mahébourg,-20.4081,57.7,27.36,94,75,9.77,MU,1645320710
Nadvoitsy,63.8667,34.3167,-7.94,97,100,1.66,RU,1645320711
Tazovsky,67.4667,78.7,-4.74,95,100,7.28,RU,1645320711
Spišská Nová Ves,48.9446,20.5615,0.93,66,100,1.26,SK,1645320712
San Joaquin,37.9333,-121.3011,21.75,42,0,2.06,US,1645320712
Vila Velha,-20.3297,-40.2925,25.97,91,75,4.12,BR,1645320713
Semīrom,31.4167,51.5667,1.29,99,100,2.3,IR,1645320713
Tymovskoye,50.8456,142.655,-7.46,86,98,2.5,RU,1645320713
Aklavik,68.2191,-135.0107,-27.54,100,16,1.23,CA,1645320714
Usogorsk,63.4106,48.6872,-1.63,96,100,4.38,RU,1645320715
Markova,48.6758,24.4138,-1.54,75,38,2.84,UA,1645320715
Port Hedland,-20.3167,118.5667,37.03,30,0,4.63,AU,1645320472
Kuito,-12.3833,16.9333,14.75,98,98,2.48,AO,1645320716
Sambava,-14.2667,50.1667,23.11,85,87,1.74,MG,1645320716
Kapaa,22.0752,-159.319,26.99,71,0,7.2,US,1645320717
Klaksvík,62.2266,-6.589,3.51,73,100,16.67,FO,1645320717
Phanat Nikhom,13.4458,101.1844,32.22,100,53,4.23,TH,1645320778
Carutapera,-1.195,-46.02,25.27,85,100,2.04,BR,1645320778
Grefrath,51.3363,6.3407,7.49,82,40,7.2,DE,1645320779
Tabou,4.423,-7.3528,25.96,88,81,3.8,CI,1645320779
Lata,40.1629,-8.3327,7.25,70,8,1.81,PT,1645320779
Clyde River,70.4692,-68.5914,-21.87,84,100,14.92,CA,1645320699
Castro,-24.7911,-50.0119,15.33,88,17,1.36,BR,1645320780
Kavieng,-2.5744,150.7967,28.81,75,95,6.19,PG,1645320781
Lázaro Cárdenas,17.9583,-102.2,24.83,75,0,1.91,MX,1645320602
Necochea,-38.5473,-58.7368,20.02,81,100,5.51,AR,1645320634
Sitka,57.0531,-135.33,3.94,81,75,2.57,US,1645320781
Chipiona,36.7366,-6.437,12.12,94,0,2.06,ES,1645320782
Bambous Virieux,-20.3428,57.7575,27.34,94,75,9.77,MU,1645320782
Ancud,-41.8697,-73.8203,14.68,89,90,2.2,CL,1645320783
Kyrenia,35.3417,33.3167,15.72,66,0,6.67,CY,1645320783
Eureka,40.8021,-124.1637,8.85,87,95,2.68,US,1645320784
Egvekinot,66.3167,-179.1667,-27.52,89,16,5.18,RU,1645320784
Narsaq,60.9167,-46.05,-8.88,81,100,3.98,GL,1645320784
Katherine,-14.4667,132.2667,31.18,58,75,1.54,AU,1645320785
Queenstown,-31.8976,26.8753,16.3,61,5,1.7,ZA,1645320785
College,64.8569,-147.8028,-12.11,75,75,0,US,1645320561
Tubualá,9.5167,-79.0333,26.3,79,5,7.88,PA,1645320786
Torbay,47.6666,-52.7314,-2.46,83,100,6.17,CA,1645320786
Provideniya,64.3833,-173.3,-22.49,89,49,4.35,RU,1645320787
Lebu,-37.6167,-73.65,14.56,92,50,5.61,CL,1645320787
Saint George,37.1041,-113.5841,17.36,16,0,1.54,US,1645320728
Iqaluit,63.7506,-68.5145,-35.15,73,20,2.06,CA,1645320589
La Ronge,55.1001,-105.2842,-19.86,77,20,2.06,CA,1645320529
Iskateley,67.6803,53.1512,-2.44,93,100,6.61,RU,1645320788
Novikovo,51.1537,37.8879,2.01,84,13,7.75,RU,1645320788
Alice Springs,-23.7,133.8833,27.75,26,0,4.63,AU,1645320789
Tual,-5.6667,132.75,27.14,81,99,4.38,ID,1645320790
Saint Paul Harbor,57.79,-152.4072,5.73,61,100,4.12,US,1645320790
Skeldon,5.8833,-57.1333,23.29,89,33,2.24,GY,1645320790
Katsuura,35.1333,140.3,8.44,88,100,3.52,JP,1645320791
Sarkand,45.41,79.9186,-5.79,60,0,3.54,KZ,1645320791
Puerto del Rosario,28.5004,-13.8627,15.86,72,92,6.69,ES,1645320792
Bodden Town,19.2833,-81.25,27,71,20,4.63,KY,1645320792
Kvitok,56.0724,98.4813,-9.2,95,100,2.07,RU,1645320793
Cidreira,-30.1811,-50.2056,23.45,76,0,6.25,BR,1645320793
Trincomalee,8.5711,81.2335,26.4,79,68,3.19,LK,1645320794
Ayagoz,47.9714,80.4392,-20.78,86,0,2.83,KZ,1645320794
Bariloche,-41.1456,-71.3082,11.86,82,75,1.03,AR,1645320795
Namatanai,-3.6667,152.4333,28.98,72,100,3.63,PG,1645320795
Leshukonskoye,64.8989,45.7622,-2.97,95,100,3.33,RU,1645320796
Cabo San Lucas,22.8909,-109.9124,22.17,67,75,3.6,MX,1645320624
Guilin,25.2819,110.2864,4.06,91,100,5,CN,1645320796
Laguna,38.421,-121.4238,21.91,35,0,1.54,US,1645320797
Varnavino,57.4035,45.0916,0.72,90,100,6.32,RU,1645320797
Coyhaique,-45.5752,-72.0662,16.34,94,75,2.06,CL,1645320575
Paidha,2.4167,30.9855,19.56,34,33,1.88,UG,1645320798
Te Anau,-45.4167,167.7167,18.84,39,22,0.18,NZ,1645320798
Khovd,48.0056,91.6419,-20.87,93,99,0.38,MN,1645320799
Ostrovnoy,68.0531,39.5131,-2.08,93,100,4.98,RU,1645320799
Zyryanovsk,49.7386,84.2719,-25.92,100,75,0.73,KZ,1645320799
Hilo,19.7297,-155.09,27.11,82,100,3.6,US,1645320800
Husavik,66.0449,-17.3389,-4.05,89,100,2.84,IS,1645320800
Ahipara,-35.1667,173.1667,23.72,61,21,2.12,NZ,1645320861
Bambanglipuro,-7.95,110.2833,27.87,76,100,2.68,ID,1645320861
Rockport,28.0206,-97.0544,13.01,75,0,4.63,US,1645320815
Asău,46.4333,26.4,4.86,79,100,1.73,RO,1645320862
Quatre Cocos,-20.2078,57.7625,27.27,90,100,13.68,MU,1645320862
Dāmghān,36.1683,54.348,6.99,72,100,1.28,IR,1645320863
Antalaha,-14.9003,50.2788,23.02,85,79,3.11,MG,1645320863
El Alto,-4.2714,-81.2147,21.39,74,99,3.21,PE,1645320864
Kosterevo,55.9299,39.6144,0.81,98,100,5.45,RU,1645320864
Galveston,29.3669,-94.9669,15.1,62,0,3.09,US,1645320865
Yerbogachën,61.2767,108.0108,-20.18,98,100,2.33,RU,1645320865
Faya,18.3851,42.4509,13.06,82,1,2.55,SA,1645320866
Talnakh,69.4865,88.3972,-5.44,96,100,5.74,RU,1645320866
Genhe,50.7833,121.5167,-19.48,83,99,1.32,CN,1645320866
Alta Floresta,-9.8756,-56.0861,20.93,99,100,0.88,BR,1645320867
Inhambane,-23.865,35.3833,23.33,81,5,2.54,MZ,1645320867
Vostok,46.4856,135.8833,-13.91,86,100,2.93,RU,1645320868
Avera,33.194,-82.5271,12.06,58,0,3.09,US,1645320868
Sept-Îles,50.2001,-66.3821,-15.76,85,100,5.14,CA,1645320869
Uspenka,48.3903,39.1619,3.01,97,100,7.34,UA,1645320869
Hot Springs,34.5037,-93.0552,11.22,59,0,2.07,US,1645320661
Kingston,17.997,-76.7936,25.53,77,20,4.12,JM,1645320870
Hammerfest,70.6634,23.6821,-4.75,80,75,1.54,NO,1645320870
Vestmannaeyjar,63.4427,-20.2734,1.89,76,100,20.48,IS,1645320871
Port-Gentil,-0.7193,8.7815,27.06,79,100,1.91,GA,1645320871
Qaqortoq,60.7167,-46.0333,-8.72,61,96,15.55,GL,1645320872
Ponta Delgada,37.7333,-25.6667,13.06,76,20,3.09,PT,1645320872
Cabo Rojo,18.0866,-67.1457,25.38,90,6,2.76,PR,1645320873
Yuancheng,36.652,107.7896,-7.04,31,59,2.08,CN,1645320873
Eganville,45.5334,-77.0994,-13.88,78,87,5.03,CA,1645320873
Ketchikan,55.3422,-131.6461,5.26,81,75,3.09,US,1645320874
Paamiut,61.994,-49.6678,-12.55,94,100,5.94,GL,1645320874
Biggar,55.6167,-3.5167,7.94,95,100,9.81,GB,1645320875
Shelburne,44.0787,-80.2041,-11.6,90,71,2.21,CA,1645320667
Yunyang,33.4474,112.7142,3.32,46,41,1.98,CN,1645320875
Touros,-5.1989,-35.4608,26.5,82,18,4.47,BR,1645320876
Kutum,14.2,24.6667,10.94,25,6,5.54,SD,1645320876
Geraldton,-28.7667,114.6,30.23,26,68,3.09,AU,1645320877
Lagoa,39.05,-27.9833,12.86,59,93,4.18,PT,1645320877
Lasem,-6.6922,111.4527,27.1,82,100,2.43,ID,1645320877
Vardø,70.3705,31.1107,-2.41,62,100,9.62,NO,1645320878
Gambissara,13.2382,-14.3108,25.68,18,12,2.4,SN,1645320878
Havøysund,70.9963,24.6622,-4.51,64,100,6.37,NO,1645320879
Olafsvik,64.8945,-23.7142,-0.54,60,100,11.84,IS,1645320879
Saldanha,-33.0117,17.9442,18.03,92,3,4.76,ZA,1645320880
Panguna,-6.3164,155.4848,28.08,64,100,1.59,PG,1645320880
Departamento de Maldonado,-34.6667,-54.9167,20.66,94,23,2.4,UY,1645320881
Tashla,51.7716,52.7427,-1.37,97,100,5.23,RU,1645320881
Tura,25.5198,90.2201,16.22,43,47,2.62,IN,1645320878
Guarapari,-20.6667,-40.4975,25.94,94,100,3.67,BR,1645320661
Antofagasta,-23.65,-70.4,19.6,82,27,1.3,CL,1645320743
Suamico,44.6319,-88.0393,-8.33,59,100,5.14,US,1645320882
Gravdal,68.1214,13.5031,-2.94,65,99,3.29,NO,1645320883
Shimoda,34.6667,138.95,10.2,67,16,7.61,JP,1645320883
Doka,13.5167,35.7667,19.62,18,5,5.98,SD,1645320944
Berbera,10.4396,45.0143,22.6,76,3,2.01,SO,1645320944
Zhoucheng,35.9122,116.3117,2.02,20,0,3.4,CN,1645320945
Pevek,69.7008,170.3133,-36.04,98,22,0.32,RU,1645320945
Saint-Augustin,51.226,-58.6502,-16.02,91,100,0.55,CA,1645320945
Basoko,1.2391,23.616,21.82,84,100,2.15,CD,1645320946
Teahupoo,-17.8333,-149.2667,25.98,75,86,6.98,PF,1645320946
Emerald,-23.5333,148.1667,29.08,51,75,6.17,AU,1645320947
Sinnamary,5.3833,-52.95,23.95,89,62,2.96,GF,1645320947
Alyangula,-13.8483,136.4192,31.93,79,40,3.6,AU,1645320948
Lindi,-10,39.7167,23.81,98,100,1.36,TZ,1645320948
Bria,6.5423,21.9863,22.08,20,88,1.9,CF,1645320948
Mossamedes,-15.1961,12.1522,24.05,78,100,2.6,AO,1645320949
Novotroitsk,51.203,58.3266,-23.61,98,51,0.67,RU,1645320949
Finschhafen,-6.6024,147.8681,29.73,72,100,3.4,PG,1645320950
Vestmanna,62.1564,-7.1664,2.51,81,100,14.4,FO,1645320950
Ouallam,14.3188,2.0866,22.09,14,2,4.9,NE,1645320950
Jaciara,-15.9653,-54.9683,20.57,98,49,1.17,BR,1645320951
Naberera,-4.2,36.9333,17.39,85,91,0.78,TZ,1645320951
Dubti,11.7361,41.0853,24.59,70,15,5.41,ET,1645320952
Lethem,3.3803,-59.7968,27.37,58,28,5.47,GY,1645320952
Muli,2.9167,73.5667,27.86,69,100,4.06,MV,1645320953
Vera Cruz,-12.6333,-41.0333,20.22,90,100,1.75,BR,1645320845
Springbok,-29.6643,17.8865,17.26,56,0,1.6,ZA,1645320954
Monte Alegre,-2.0078,-54.0692,23.35,90,100,0.56,BR,1645320954
Aykhal,66,111.5,-16.99,94,100,9.28,RU,1645320954
Stornoway,58.2093,-6.3865,7.18,100,100,10.8,GB,1645320955
Grindavik,63.8424,-22.4338,0.97,69,100,16.46,IS,1645320955
Shiyan,32.6475,110.7781,3.91,55,100,1.36,CN,1645320956
Camopi,3.1655,-52.3158,22.17,99,100,0.89,GF,1645320956
Araouane,18.9048,-3.5265,20.73,11,2,4.33,ML,1645320957
Yar-Sale,66.8333,70.8333,-2.7,95,100,7.32,RU,1645320958
Rafaela,-31.2503,-61.4867,24.24,42,99,4.82,AR,1645320958
Lilongwe,-13.9669,33.7873,18.69,98,100,0.43,MW,1645320958
San Jose,37.3394,-121.895,21.83,40,20,2.57,US,1645320455
Kruisfontein,-34.0033,24.7314,18.27,80,0,10.31,ZA,1645320959
Mercedes,-34.6515,-59.4307,23.8,72,100,3.19,AR,1645320960
Zarubino,42.63,131.0922,-8.47,52,8,7.96,RU,1645320960
Morros,-9.4467,-46.3003,22.32,85,100,1.95,BR,1645320960
Ugoofaaru,5.6667,73,27.8,77,32,5.66,MV,1645320961
Marsh Harbour,26.5412,-77.0636,23.15,84,5,7.7,BS,1645320929
Verkhnevilyuysk,63.4453,120.3167,-24.87,95,57,1.56,RU,1645320962
Kumluca,36.3703,30.2869,7.6,37,0,2.1,TR,1645320962
Cherskiy,68.75,161.3,-35.21,96,22,0.18,RU,1645320962
Dingle,10.9995,122.6711,29.46,64,85,5.13,PH,1645320963
Makakilo City,21.3469,-158.0858,25.71,68,100,5.66,US,1645320963
Rexburg,43.826,-111.7897,4.59,69,0,2.06,US,1645320817
Okha,53.5739,142.9478,-7.43,87,100,4.55,RU,1645320964
Morant Bay,17.8815,-76.4093,25.79,82,11,4.01,JM,1645320965
Thyborøn,56.6985,8.2124,2.21,66,6,7.1,DK,1645320965
Tucumcari,35.1717,-103.725,12.91,18,0,8.75,US,1645320966
Mayumba,-3.432,10.6554,25.3,88,99,0.82,GA,1645320966
Itupeva,-23.1531,-47.0578,23.56,73,75,3.09,BR,1645320966
Manyana,-23.4,21.7167,20.87,72,71,1.71,BW,1645321027
Ondjiva,-17.0667,15.7333,19.85,86,71,0.55,AO,1645320836
Bosaso,11.2842,49.1816,21.39,75,33,2.32,SO,1645321028
Tiksi,71.6872,128.8694,-29.72,98,47,2.66,RU,1645321028
Moree,-29.4667,149.85,29.01,42,40,6.17,AU,1645321028
Mana,5.6592,-53.7767,23.71,90,57,3.05,GF,1645321029
Kirakira,-10.4544,161.9205,29.38,76,26,3.41,SB,1645321029
Rocha,-34.4833,-54.3333,17.96,94,2,2.3,UY,1645321030
Sirte,31.2089,16.5887,15.23,55,90,4.97,LY,1645321030
Masoko,-9.3333,33.75,19.74,88,99,1.88,TZ,1645321030
Voh,-20.9667,164.7,30.04,65,98,1.89,NC,1645321031
Marawi,7.9986,124.2928,21.47,84,100,1.07,PH,1645321031
Paso de los Toros,-32.8167,-56.5167,23.6,52,3,6.75,UY,1645321032
Safaga,26.7292,33.9365,10.97,57,1,5.33,EG,1645321032
Kandrian,-6.2167,149.55,31.78,61,22,2.95,PG,1645321033
Denpasar,-8.65,115.2167,28.81,79,20,3.6,ID,1645320815
Williams Lake,52.1415,-122.1445,1.76,86,100,3.6,CA,1645321033
Atambua,-9.1061,124.8925,28.3,67,39,0.91,ID,1645321034
Walker,30.7335,-95.5669,14.23,35,0,0,US,1645320756
Mapastepec,15.4333,-92.9,25.33,66,7,2.67,MX,1645321035
Vilyuysk,63.7553,121.6247,-27.28,98,91,1.94,RU,1645321035
Portland,45.5234,-122.6762,10.76,81,75,3.6,US,1645321035
Wattegama,6.7989,81.4808,21.51,82,59,1.01,LK,1645321036
Port Alfred,-33.5906,26.891,21.69,69,1,9.52,ZA,1645320963
Tūkrah,32.5341,20.5791,12.86,88,85,2.44,LY,1645321037
Haftoni,38.7632,48.7622,7.44,90,97,0.81,AZ,1645321037
Fukuechō,32.6881,128.8419,2.2,69,75,9.26,JP,1645321037
Bandarbeyla,9.4942,50.8122,23.95,71,91,7.22,SO,1645321038
Kualakapuas,-3.0091,114.3876,25.09,96,100,1.33,ID,1645321038
Lev Tolstoy,53.2134,39.446,-0.25,85,99,8.39,RU,1645321039
Berlevåg,70.8578,29.0864,-3.12,66,100,7.54,NO,1645321039
Saint-Pierre,-21.3393,55.4781,26.82,89,100,15.43,RE,1645321039
Itarema,-2.9248,-39.9167,26.05,82,84,4.59,BR,1645321040
Beloha,-25.1667,45.05,21.43,84,0,4.31,MG,1645321040
Vaitape,-16.5167,-151.75,27.54,73,100,7.31,PF,1645321041
Piney Green,34.716,-77.3202,11.17,46,0,2.06,US,1645321041
Flinders,-34.5833,150.8552,28.99,60,0,1.79,AU,1645321028
Tamiahua,21.2667,-97.45,16.55,52,100,3.46,MX,1645321042
Beringovskiy,63.05,179.3167,-24.65,96,100,5.31,RU,1645321042
Fairbanks,64.8378,-147.7164,-12.1,75,40,0,US,1645321043
Katangli,51.7102,143.2326,-8.54,90,100,5.77,RU,1645321043
Parole,38.9796,-76.5305,-0.53,38,0,8.75,US,1645320941
Yeppoon,-23.1333,150.7333,29.88,59,70,6.2,AU,1645321044
Bacolod City,10.6667,122.95,30.17,60,98,4.37,PH,1645321044
San Buenaventura,27.0833,-101.5333,16.38,30,87,3.58,MX,1645321044
Kargil,34.5667,76.1,-22.72,96,89,1.15,IN,1645321045
Pandamatenga,-18.5278,25.627,17.52,84,39,1.79,BW,1645321045
Esperance,-33.8667,121.9,20.91,64,100,7.12,AU,1645320996
Lukovetskiy,64.2956,41.9211,-1.01,98,100,1.77,RU,1645321046
Mandalgovi,45.7625,106.2708,-15.67,55,0,4.33,MN,1645321046
Tomatlán,19.9333,-105.25,21.42,94,9,1.07,MX,1645321047
Barcelos,41.5388,-8.6151,7.14,82,7,2.1,PT,1645321047
Bridlington,54.0831,-0.1919,4.38,93,100,4.47,GB,1645321048
Pangnirtung,66.1451,-65.7125,-33.85,98,99,1.37,CA,1645321048
Mineros,-17.1167,-63.2333,25.77,86,99,1.52,BO,1645321049
Riviere-au-Renard,48.9957,-64.3971,-7,96,100,2.15,CA,1645321049
Şabrātah,32.7933,12.4885,17.5,33,100,3.69,LY,1645321049
Mogadishu,2.0371,45.3438,24.99,82,89,9.22,SO,1645320815
Poya,-21.35,165.15,27.22,77,100,0.93,NC,1645321110
Nuuk,64.1835,-51.7216,-15.66,78,75,7.72,GL,1645321111
Kalininsk,51.5,44.4758,2.15,97,100,8.66,RU,1645321111
Kure,34.2333,132.5667,4.71,57,48,10.17,JP,1645321112
Oussouye,12.485,-16.5469,23.1,42,36,5.26,SN,1645321112
Hailar,49.2,119.7,-22.99,94,100,1.73,CN,1645321112
São Filipe,14.8961,-24.4956,21.36,65,100,6.56,CV,1645321113
Lishu,43.3047,124.3278,-11.74,47,6,4.01,CN,1645321113
Yefremov,53.1481,38.0992,0.88,84,62,8.88,RU,1645321114
Hoquiam,46.9809,-123.8893,8.48,95,100,7.2,US,1645321114
Foz,43.5692,-7.2544,10.79,91,31,2.56,ES,1645321115
Santa Rosa,14.3122,121.1114,30.61,70,100,5,PH,1645321042
Monastyrishche,44.1931,132.4972,-12.07,87,100,2.91,RU,1645321115
Lompoc,34.6391,-120.4579,16.88,79,0,4.12,US,1645321040
Cayenne,4.9333,-52.3333,25.05,91,89,0,GF,1645320888
Bengkulu,-3.8004,102.2655,27.64,72,90,1.58,ID,1645321116
Imeni Poliny Osipenko,52.4201,136.4853,-13.21,85,98,4.53,RU,1645321117
Coahuayana Viejo,18.7333,-103.6833,29.71,87,2,0.42,MX,1645321117
Msanga,-6.05,36.0333,17.47,95,98,1.2,TZ,1645321117
Terrace Bay,48.7834,-87.1,-8.21,92,100,10.11,CA,1645321118
Krasnyy Chikoy,50.3643,108.7512,-14.02,93,100,1.72,RU,1645321118
New Amsterdam,6.25,-57.5167,22.95,91,43,1.77,GY,1645321119
Jacksonville,30.3322,-81.6556,13.35,59,0,1.54,US,1645320842
Benicarló,40.4165,0.4271,9.2,57,0,4.66,ES,1645321119
Lavrentiya,65.5833,-171,-26,92,82,1.99,RU,1645321120
Pisco,-13.7,-76.2167,22.03,78,40,7.2,PE,1645321120
Rumoi,43.9344,141.6428,-0.32,81,100,5.23,JP,1645321121
Hay River,60.8156,-115.7999,-25.01,77,75,2.06,CA,1645321121
Mayo,38.8876,-76.5119,-0.01,38,0,8.75,US,1645321121
Abu Dhabi,24.4667,54.3667,18.06,72,0,0.51,AE,1645321122
Soe,-9.8607,124.284,26.28,65,8,1.23,ID,1645321122
Santa Maria,-29.6842,-53.8069,21.61,73,0,1.54,BR,1645321123
General Roca,-39.0333,-67.5833,26.22,25,7,10.83,AR,1645321123
Naze,28.3667,129.4833,11.51,73,100,11.07,JP,1645321124
Kamaishi,39.2667,141.8833,1.53,78,100,2.67,JP,1645321124
Paita,-5.0892,-81.1144,22.27,77,96,4.14,PE,1645321125
Pundaguitan,6.3711,126.1689,24.41,89,100,5.65,PH,1645321125
Cap Malheureux,-19.9842,57.6142,27.48,81,100,7.6,MU,1645321125
Rogers,36.3668,-95.5836,11.31,68,0,0.89,US,1645321044
Kalemie,-5.9475,29.1947,20.43,80,100,1.08,CD,1645321126
Pangoa,-12.1167,-73,20.05,98,97,0.38,PE,1645321127
Chihuahua,28.5,-106,15.46,25,59,3.43,MX,1645320752
Tuatapere,-46.1333,167.6833,18.23,43,64,2.33,NZ,1645320881
Omboué,-1.5746,9.2618,24.45,91,65,1.27,GA,1645321127
Dakoro,14.5106,6.765,16.67,16,5,4.92,NE,1645321128
Tete,-16.1564,33.5867,24.05,100,75,0,MZ,1645321128
Lerwick,60.1545,-1.1494,5,68,100,12.65,GB,1645321129
Sanguéya,10.7,-14.3667,21.32,84,13,0.97,GN,1645321129
Bathsheba,13.2167,-59.5167,25.34,73,20,7.72,BB,1645321129
Zhenlai,45.8495,123.2973,-14.86,73,5,2.44,CN,1645321130
Ingham,42.6,-84.3833,-9.13,73,0,0,US,1645321130
Kiyasovo,56.3491,53.1244,-3.99,94,100,6.79,RU,1645321131
Longyan,25.1072,117.0225,3.14,99,100,2.15,CN,1645321131
Koani,-6.1333,39.2833,24.8,88,65,2.15,TZ,1645321132
Udachny,66.4167,112.4,-15.86,84,100,6.51,RU,1645321192
Yārāda,17.65,83.2667,23.18,94,75,1.03,IN,1645321193
Harlingen,26.1906,-97.6961,17.97,60,0,4.63,US,1645321193
Muriti,-1.9833,32.9167,21.06,75,100,4.83,TZ,1645321194
Marystown,47.1666,-55.1483,-2.3,100,15,2.53,CA,1645321194
Godda,24.8333,87.2167,18.73,42,43,1.86,IN,1645321195
Vao,-22.6667,167.4833,25.78,80,100,3.22,NC,1645321193
Nālūt,30.3333,10.85,15,23,100,5.71,LY,1645321196
At-Bashi,41.1702,75.8106,-18.94,69,1,1.13,KG,1645321196
Honiara,-9.4333,159.95,30.11,70,39,2.39,SB,1645321196
Luang Prabang,19.8856,102.1347,19.98,100,100,3.09,LA,1645321197
Rockland,41.1668,-74.0496,-2.99,46,40,2.24,US,1645320910
Moratuwa,6.773,79.8816,22.01,85,86,2.51,LK,1645321197
Port Blair,11.6667,92.75,21.02,94,40,1.03,IN,1645321198
Benguela,-12.5763,13.4055,25.7,79,100,1.13,AO,1645321198
Santa Isabel Rio Negro,-0.4139,-65.0192,22.82,96,58,0.98,BR,1645321199
Nelson Bay,-32.7167,152.15,28.2,67,40,7.01,AU,1645321199
Saint Anthony,45.0205,-93.218,-4.27,62,0,7.2,US,1645321200
Pacific Grove,36.6177,-121.9166,18.11,73,0,2.68,US,1645321071
Manado,1.487,124.8455,24.43,94,75,1.03,ID,1645321201
Oodweyne,9.4092,45.064,16.34,38,8,3.14,SO,1645321202
Arawa,-6.2132,155.5367,31.19,64,97,2.77,PG,1645321202
Ucluelet,48.9329,-125.5528,7.75,88,100,1.34,CA,1645321203
Coquimbo,-29.9533,-71.3436,16.85,82,0,2.57,CL,1645321203
Bonthe,7.5264,-12.505,25.24,84,1,1.06,SL,1645321204
Comodoro Rivadavia,-45.8667,-67.5,13.92,94,100,8.75,AR,1645320730
Kropotkin,45.4375,40.5756,3.29,93,90,3.01,RU,1645321204
Yauya,-8.9833,-77.3,10.2,78,100,0.59,PE,1645321205
Ust-Nera,64.5667,143.2,-28.65,93,56,1.38,RU,1645321205
Salekhard,66.53,66.6019,-8.71,95,100,3.34,RU,1645321206
Nioro,13.35,-15.75,24.08,20,82,4.69,GM,1645321206
Muncar,-8.4333,114.3333,28.73,74,100,1.87,ID,1645321206
Linqiong,30.4159,103.4609,4.9,64,93,1.58,CN,1645321207
Oistins,13.0667,-59.5333,25.05,73,20,7.72,BB,1645321187
Bereket,39.2446,55.5154,9.37,46,98,0.91,TM,1645321208
Jinchang,38.4953,102.1739,-5.9,24,0,0.18,CN,1645321208
Mujiayingzi,42.1167,118.7833,-11.9,59,99,4.01,CN,1645321209
Mahon,39.8885,4.2658,11.31,62,0,9.77,ES,1645321209
Rio Grande,-32.035,-52.0986,22.5,73,0,6.3,BR,1645321015
Cururupu,-1.8283,-44.8683,24.11,92,98,0.82,BR,1645321210
San-Pédro,4.7485,-6.6363,25.87,90,13,3.38,CI,1645321210
Juneau,58.3019,-134.4197,4.36,94,75,0,US,1645321163
São José da Coroa Grande,-8.8978,-35.1478,26.63,79,39,4.65,BR,1645321211
Santiago del Estero,-27.7951,-64.2615,26.16,49,62,1.94,AR,1645321086
Chapais,49.7834,-74.8492,-21.12,91,100,4.4,CA,1645321211
Biltine,14.5333,20.9167,17.68,15,4,9.88,TD,1645321212
Aasiaat,68.7098,-52.8699,-22.62,88,100,6.16,GL,1645321212
Issia,6.4922,-6.5856,23.5,88,72,1.67,CI,1645321213
Mergen,49.1833,125.2167,-17.02,85,93,2.24,CN,1645321213
Porto-Novo,6.4965,2.6036,26.23,86,100,3.31,BJ,1645321214
Juegang,32.3174,121.1855,2.64,41,84,7.55,CN,1645321214
Yenagoa,4.9247,6.2642,25.13,88,100,1.15,NG,1645321275
Presidencia Roque Sáenz Peña,-26.7852,-60.4388,28.72,29,73,1.44,AR,1645321275
Sundsvall,62.3913,17.3063,-15.02,92,33,1.54,SE,1645321276
Pavlodar,52.3,76.95,-19.11,84,0,2,KZ,1645321047
Tirschenreuth,49.8825,12.3331,1.77,93,100,6.26,DE,1645321276
Bayan,46.0833,127.4,-14.06,90,99,3.06,CN,1645321277
Krasnogvardeyskiy,57.3793,62.3195,-11.91,89,100,3.38,RU,1645321277
Raahe,64.6833,24.4833,-3.95,96,100,3.72,FI,1645321257
Baião,-2.7906,-49.6717,22.7,97,100,0.63,BR,1645321278
Jizan,17.3333,42.6667,26.52,75,44,2.46,SA,1645321278
Praia,14.9215,-23.5087,20.3,73,20,9.77,CV,1645321279
Middle Island,40.8843,-72.9373,-1.97,42,0,11.83,US,1645321279
Audincourt,47.4833,6.8534,7.24,74,100,7.95,FR,1645321280
Leninsk,48.7119,45.1994,2.92,80,100,6.06,RU,1645321280
Kindu,-2.95,25.95,20.87,97,100,1.96,CD,1645321280
Damietta,31.4165,31.8133,10.94,74,1,2.23,EG,1645321281
Māchalpur,24.1333,76.3,15.97,39,0,1,IN,1645321281
Cabedelo,-6.9811,-34.8339,27.37,81,44,4.77,BR,1645321282
Saint-Louis,16.3333,-15,23.02,12,0,5.02,SN,1645321282
Perth,-31.9333,115.8333,27.8,41,0,6.69,AU,1645321007
Belaya Gora,68.5333,146.4167,-34.19,99,100,0.57,RU,1645321283
Premnitz,52.5333,12.3333,4.6,97,100,4.7,DE,1645321283
Margate,51.3813,1.3862,8.31,84,73,1.79,GB,1645321284
Kavaratti,10.5669,72.642,27.08,72,17,3.65,IN,1645321284
Chaman,30.9236,66.4512,8.36,47,0,0.46,PK,1645321285
Nouakchott,18.0858,-15.9785,18.96,44,0,6.41,MR,1645321135
Cockburn Town,21.4612,-71.1419,24.98,69,40,5.14,TC,1645321262
Marsá Maţrūḩ,31.3525,27.2453,13.11,71,40,3.09,EG,1645321285
Chui,-33.6971,-53.4616,19.85,87,3,3.53,UY,1645321286
Qingdao,36.0986,120.3719,-1.22,43,0,6,CN,1645321276
Nyrob,60.733,56.7202,-4.28,94,100,5.1,RU,1645321287
Bonavista,48.6499,-53.1147,-2.16,68,89,6.08,CA,1645321287
Casa Nova,-9.4167,-41.1333,26.99,69,78,3,BR,1645321288
Sinaloa,25,-107.5,22.25,41,100,0.87,MX,1645321288
Krasnosel'kup,65.7,82.4667,-7.45,90,100,8.45,RU,1645321288
Zhigansk,66.7697,123.3711,-33.58,100,94,4.08,RU,1645321289
Plaridel,14.8872,120.8572,30.61,52,96,2.05,PH,1645321289
Coos Bay,43.3665,-124.2179,9.06,93,100,2.06,US,1645321290
Gornopravdinsk,60.05,69.9,-9.32,77,0,5.02,RU,1645321290
Mata,40.683,-7.4592,3.85,77,14,2.1,PT,1645321291
Kuusamo,65.9667,29.1833,-5.98,93,100,1.54,FI,1645321291
Charter Township of Clinton,42.587,-82.9199,-6.99,65,20,3.09,US,1645321292
Shubarkuduk,49.1447,56.4872,-15.89,95,63,2.06,KZ,1645321292
Brigantine,39.4101,-74.3646,-0.97,40,0,11.32,US,1645321259
The Valley,18.217,-63.0578,24.92,68,8,6.91,AI,1645321293
Mattru,7.6244,-11.8332,23.62,85,2,0.31,SL,1645321293
Algodones,20.3888,-105.4773,21.3,87,0,1.57,MX,1645321294
Thunder Bay,48.4001,-89.3168,-8.58,86,100,2.06,CA,1645321276
İskilip,40.7353,34.4739,-0.86,95,92,1.64,TR,1645321294
